{
  "paises": [
    {
      "codigo": "MX",
      "nombre": "México",
      "emoji": "🇲🇽",
      "capital": "Ciudad de México",
      "moneda": "MXN",
      "ubicacion": "Norteamérica",
      "latitud": 19.4326,
      "longitud": -99.1332,
      "grupo": "A"
    },
    {
      "codigo": "ZA",
      "nombre": "Sudáfrica",
      "emoji": "🇿🇦",
      "capital": "Pretoria",
      "moneda": "ZAR",
      "ubicacion": "África",
      "latitud": -25.7461,
      "longitud": 28.2293,
      "grupo": "A"
    },
    {
      "codigo": "KR",
      "nombre": "Corea del Sur",
      "emoji": "🇰🇷",
      "capital": "Seúl",
      "moneda": "KRW",
      "ubicacion": "Asia",
      "latitud": 37.5665,
      "longitud": 126.9780,
      "grupo": "A"
    },
    {
      "codigo": "CZ",
      "nombre": "Chequia",
      "emoji": "🇨🇿",
      "capital": "Praga",
      "moneda": "CZK",
      "ubicacion": "Europa",
      "latitud": 50.0755,
      "longitud": 14.4378,
      "grupo": "A"
    },
    {
      "codigo": "CA",
      "nombre": "Canadá",
      "emoji": "🇨🇦",
      "capital": "Ottawa",
      "moneda": "CAD",
      "ubicacion": "Norteamérica",
      "latitud": 45.4215,
      "longitud": -75.6972,
      "grupo": "B"
    },
    {
      "codigo": "BA",
      "nombre": "Bosnia y Herzegovina",
      "emoji": "🇧🇦",
      "capital": "Sarajevo",
      "moneda": "BAM",
      "ubicacion": "Europa",
      "latitud": 43.9159,
      "longitud": 17.6791,
      "grupo": "B"
    },
    {
      "codigo": "QA",
      "nombre": "Qatar",
      "emoji": "🇶🇦",
      "capital": "Doha",
      "moneda": "QAR",
      "ubicacion": "Asia",
      "latitud": 25.2854,
      "longitud": 51.5310,
      "grupo": "B"
    },
    {
      "codigo": "CH",
      "nombre": "Suiza",
      "emoji": "🇨🇭",
      "capital": "Berna",
      "moneda": "CHF",
      "ubicacion": "Europa",
      "latitud": 46.9479,
      "longitud": 7.4474,
      "grupo": "B"
    },
    {
      "codigo": "BR",
      "nombre": "Brasil",
      "emoji": "🇧🇷",
      "capital": "Brasilia",
      "moneda": "BRL",
      "ubicacion": "Sudamérica",
      "latitud": -15.8267,
      "longitud": -47.8822,
      "grupo": "C"
    },
    {
      "codigo": "MA",
      "nombre": "Marruecos",
      "emoji": "🇲🇦",
      "capital": "Rabat",
      "moneda": "MAD",
      "ubicacion": "África",
      "latitud": 33.9716,
      "longitud": -6.8498,
      "grupo": "C"
    },
    {
      "codigo": "HT",
      "nombre": "Haití",
      "emoji": "🇭🇹",
      "capital": "Puerto Príncipe",
      "moneda": "HTG",
      "ubicacion": "Caribe",
      "latitud": 18.9712,
      "longitud": -72.2852,
      "grupo": "C"
    },
    {
      "codigo": "SC",
      "nombre": "Escocia",
      "emoji": "🏴󠁧󠁢󠁳󠁣󠁴󠁿",
      "capital": "Edimburgo",
      "moneda": "GBP",
      "ubicacion": "Europa",
      "latitud": 55.9533,
      "longitud": -3.1883,
      "grupo": "C"
    },
    {
      "codigo": "US",
      "nombre": "Estados Unidos",
      "emoji": "🇺🇸",
      "capital": "Washington D.C.",
      "moneda": "USD",
      "ubicacion": "Norteamérica",
      "latitud": 38.8951,
      "longitud": -77.0369,
      "grupo": "D"
    },
    {
      "codigo": "PY",
      "nombre": "Paraguay",
      "emoji": "🇵🇾",
      "capital": "Asunción",
      "moneda": "PYG",
      "ubicacion": "Sudamérica",
      "latitud": -25.2637,
      "longitud": -57.5759,
      "grupo": "D"
    },
    {
      "codigo": "AU",
      "nombre": "Australia",
      "emoji": "🇦🇺",
      "capital": "Canberra",
      "moneda": "AUD",
      "ubicacion": "Oceanía",
      "latitud": -35.2809,
      "longitud": 149.1300,
      "grupo": "D"
    },
    {
      "codigo": "TR",
      "nombre": "Turquía",
      "emoji": "🇹🇷",
      "capital": "Ankara",
      "moneda": "TRY",
      "ubicacion": "Asia",
      "latitud": 39.9334,
      "longitud": 32.8597,
      "grupo": "D"
    },
    {
      "codigo": "DE",
      "nombre": "Alemania",
      "emoji": "🇩🇪",
      "capital": "Berlín",
      "moneda": "EUR",
      "ubicacion": "Europa",
      "latitud": 52.5200,
      "longitud": 13.4050,
      "grupo": "E"
    },
    {
      "codigo": "CW",
      "nombre": "Curazao",
      "emoji": "🇨🇼",
      "capital": "Willemstad",
      "moneda": "ANG",
      "ubicacion": "Caribe",
      "latitud": 12.1696,
      "longitud": -68.9900,
      "grupo": "E"
    },
    {
      "codigo": "CI",
      "nombre": "Costa de Marfil",
      "emoji": "🇨🇮",
      "capital": "Yamusukro",
      "moneda": "XOF",
      "ubicacion": "África",
      "latitud": 6.8270,
      "longitud": -5.2893,
      "grupo": "E"
    },
    {
      "codigo": "EC",
      "nombre": "Ecuador",
      "emoji": "🇪🇨",
      "capital": "Quito",
      "moneda": "USD",
      "ubicacion": "Sudamérica",
      "latitud": -0.2298,
      "longitud": -78.5250,
      "grupo": "E"
    },
    {
      "codigo": "NL",
      "nombre": "Países Bajos",
      "emoji": "🇳🇱",
      "capital": "Ámsterdam",
      "moneda": "EUR",
      "ubicacion": "Europa",
      "latitud": 52.3676,
      "longitud": 4.9041,
      "grupo": "F"
    },
    {
      "codigo": "JP",
      "nombre": "Japón",
      "emoji": "🇯🇵",
      "capital": "Tokio",
      "moneda": "JPY",
      "ubicacion": "Asia",
      "latitud": 35.6762,
      "longitud": 139.6503,
      "grupo": "F"
    },
    {
      "codigo": "SE",
      "nombre": "Suecia",
      "emoji": "🇸🇪",
      "capital": "Estocolmo",
      "moneda": "SEK",
      "ubicacion": "Europa",
      "latitud": 59.3293,
      "longitud": 18.0686,
      "grupo": "F"
    },
    {
      "codigo": "TN",
      "nombre": "Túnez",
      "emoji": "🇹🇳",
      "capital": "Túnez",
      "moneda": "TND",
      "ubicacion": "África",
      "latitud": 36.8065,
      "longitud": 10.1815,
      "grupo": "F"
    },
    {
      "codigo": "BE",
      "nombre": "Bélgica",
      "emoji": "🇧🇪",
      "capital": "Bruselas",
      "moneda": "EUR",
      "ubicacion": "Europa",
      "latitud": 50.8503,
      "longitud": 4.3517,
      "grupo": "G"
    },
    {
      "codigo": "EG",
      "nombre": "Egipto",
      "emoji": "🇪🇬",
      "capital": "El Cairo",
      "moneda": "EGP",
      "ubicacion": "África",
      "latitud": 30.0444,
      "longitud": 31.2357,
      "grupo": "G"
    },
    {
      "codigo": "IR",
      "nombre": "Irán",
      "emoji": "🇮🇷",
      "capital": "Teherán",
      "moneda": "IRR",
      "ubicacion": "Asia",
      "latitud": 35.6892,
      "longitud": 51.3890,
      "grupo": "G"
    },
    {
      "codigo": "NZ",
      "nombre": "Nueva Zelanda",
      "emoji": "🇳🇿",
      "capital": "Wellington",
      "moneda": "NZD",
      "ubicacion": "Oceanía",
      "latitud": -41.2865,
      "longitud": 174.8860,
      "grupo": "G"
    },
    {
      "codigo": "ES",
      "nombre": "España",
      "emoji": "🇪🇸",
      "capital": "Madrid",
      "moneda": "EUR",
      "ubicacion": "Europa",
      "latitud": 40.4168,
      "longitud": -3.7038,
      "grupo": "H"
    },
    {
      "codigo": "CV",
      "nombre": "Cabo Verde",
      "emoji": "🇨🇻",
      "capital": "Praia",
      "moneda": "CVE",
      "ubicacion": "África",
      "latitud": 15.0557,
      "longitud": -23.6345,
      "grupo": "H"
    },
    {
      "codigo": "SA",
      "nombre": "Arabia Saudita",
      "emoji": "🇸🇦",
      "capital": "Riad",
      "moneda": "SAR",
      "ubicacion": "Asia",
      "latitud": 24.7136,
      "longitud": 46.6753,
      "grupo": "H"
    },
    {
      "codigo": "UY",
      "nombre": "Uruguay",
      "emoji": "🇺🇾",
      "capital": "Montevideo",
      "moneda": "UYU",
      "ubicacion": "Sudamérica",
      "latitud": -34.9011,
      "longitud": -56.1645,
      "grupo": "H"
    },
    {
      "codigo": "FR",
      "nombre": "Francia",
      "emoji": "🇫🇷",
      "capital": "París",
      "moneda": "EUR",
      "ubicacion": "Europa",
      "latitud": 48.8566,
      "longitud": 2.3522,
      "grupo": "I"
    },
    {
      "codigo": "SN",
      "nombre": "Senegal",
      "emoji": "🇸🇳",
      "capital": "Dakar",
      "moneda": "XOF",
      "ubicacion": "África",
      "latitud": 14.7167,
      "longitud": -17.4677,
      "grupo": "I"
    },
    {
      "codigo": "IQ",
      "nombre": "Irak",
      "emoji": "🇮🇶",
      "capital": "Bagdad",
      "moneda": "IQD",
      "ubicacion": "Asia",
      "latitud": 33.3128,
      "longitud": 44.3615,
      "grupo": "I"
    },
    {
      "codigo": "NO",
      "nombre": "Noruega",
      "emoji": "🇳🇴",
      "capital": "Oslo",
      "moneda": "NOK",
      "ubicacion": "Europa",
      "latitud": 59.9139,
      "longitud": 10.7522,
      "grupo": "I"
    },
    {
      "codigo": "AR",
      "nombre": "Argentina",
      "emoji": "🇦🇷",
      "capital": "Buenos Aires",
      "moneda": "ARS",
      "ubicacion": "Sudamérica",
      "latitud": -34.6037,
      "longitud": -58.3816,
      "grupo": "J"
    },
    {
      "codigo": "DZ",
      "nombre": "Argelia",
      "emoji": "🇩🇿",
      "capital": "Argel",
      "moneda": "DZD",
      "ubicacion": "África",
      "latitud": 36.7372,
      "longitud": 3.0869,
      "grupo": "J"
    },
    {
      "codigo": "AT",
      "nombre": "Austria",
      "emoji": "🇦🇹",
      "capital": "Viena",
      "moneda": "EUR",
      "ubicacion": "Europa",
      "latitud": 48.2082,
      "longitud": 16.3738,
      "grupo": "J"
    },
    {
      "codigo": "JO",
      "nombre": "Jordania",
      "emoji": "🇯🇴",
      "capital": "Amán",
      "moneda": "JOD",
      "ubicacion": "Asia",
      "latitud": 31.9454,
      "longitud": 35.9284,
      "grupo": "J"
    },
    {
      "codigo": "PT",
      "nombre": "Portugal",
      "emoji": "🇵🇹",
      "capital": "Lisboa",
      "moneda": "EUR",
      "ubicacion": "Europa",
      "latitud": 38.7223,
      "longitud": -9.1393,
      "grupo": "K"
    },
    {
      "codigo": "CD",
      "nombre": "RD Congo",
      "emoji": "🇨🇩",
      "capital": "Kinshasa",
      "moneda": "CDF",
      "ubicacion": "África",
      "latitud": -4.3369,
      "longitud": 15.3136,
      "grupo": "K"
    },
    {
      "codigo": "UZ",
      "nombre": "Uzbekistán",
      "emoji": "🇺🇿",
      "capital": "Taskent",
      "moneda": "UZS",
      "ubicacion": "Asia",
      "latitud": 41.2995,
      "longitud": 69.2401,
      "grupo": "K"
    },
    {
      "codigo": "CO",
      "nombre": "Colombia",
      "emoji": "🇨🇴",
      "capital": "Bogotá",
      "moneda": "COP",
      "ubicacion": "Sudamérica",
      "latitud": 4.7110,
      "longitud": -74.0721,
      "grupo": "K"
    },
    {
      "codigo": "GB",
      "nombre": "Inglaterra",
      "emoji": "🏴󠁧󠁢󠁥󠁮󠁧󠁿",
      "capital": "Londres",
      "moneda": "GBP",
      "ubicacion": "Europa",
      "latitud": 51.5074,
      "longitud": -0.1278,
      "grupo": "L"
    },
    {
      "codigo": "HR",
      "nombre": "Croacia",
      "emoji": "🇭🇷",
      "capital": "Zagreb",
      "moneda": "EUR",
      "ubicacion": "Europa",
      "latitud": 45.8150,
      "longitud": 15.9819,
      "grupo": "L"
    },
    {
      "codigo": "GH",
      "nombre": "Ghana",
      "emoji": "🇬🇭",
      "capital": "Acra",
      "moneda": "GHS",
      "ubicacion": "África",
      "latitud": 5.6037,
      "longitud": -0.1870,
      "grupo": "L"
    },
    {
      "codigo": "PA",
      "nombre": "Panamá",
      "emoji": "🇵🇦",
      "capital": "Ciudad de Panamá",
      "moneda": "PAB",
      "ubicacion": "Centroamérica",
      "latitud": 8.9824,
      "longitud": -79.5199,
      "grupo": "L"
    }
  ]
}

